     3.04           OBSERVATION DATA    M: Mixed            RINEX VERSION / TYPE
RTKCONV-EX 2.5.0                        20250914 071152 UTC PGM / RUN BY / DATE 
format: RINEX                                               COMMENT             
log: Z:\Users\hurunzhi\project\TASGNSS\data\20210610\COM38_2COMMENT             
  10610_025603.obs                                          COMMENT             
                                                            MARKER NAME         
                                                            MARKER NUMBER       
                                                            MARKER TYPE         
                                                            OBSERVER / AGENCY   
                                                            REC # / TYPE / VERS 
                                                            ANT # / TYPE        
        0.0000        0.0000        0.0000                  APPROX POSITION XYZ 
        0.0000        0.0000        0.0000                  ANTENNA: DELTA H/E/N
G   11 C1C L1C D1C S1C C2L L2L D2L S2L C2S D2S S2S          SYS / # / OBS TYPES 
R    8 C1C L1C D1C S1C C2C L2C D2C S2C                      SYS / # / OBS TYPES 
E    8 C1C L1C D1C S1C C7Q L7Q D7Q S7Q                      SYS / # / OBS TYPES 
J    8 C1C L1C D1C S1C C2L L2L D2L S2L                      SYS / # / OBS TYPES 
S    4 C1C L1C D1C S1C                                      SYS / # / OBS TYPES 
C    8 C2I L2I D2I S2I C7I L7I D7I S7I                      SYS / # / OBS TYPES 
  2021    06    10    03    35   55.0050000     GPS         TIME OF FIRST OBS   
  2021    06    10    03    39   17.0050000     GPS         TIME OF LAST OBS    
G L1C                                                       SYS / PHASE SHIFT   
G L2L  0.00000                                              SYS / PHASE SHIFT   
R L1C                                                       SYS / PHASE SHIFT   
R L2C                                                       SYS / PHASE SHIFT   
E L1C  0.00000                                              SYS / PHASE SHIFT   
E L7Q  0.00000                                              SYS / PHASE SHIFT   
J L1C                                                       SYS / PHASE SHIFT   
J L2L  0.00000                                              SYS / PHASE SHIFT   
S L1C                                                       SYS / PHASE SHIFT   
C L2I                                                       SYS / PHASE SHIFT   
C L7I                                                       SYS / PHASE SHIFT   
  0                                                         GLONASS SLOT / FRQ #
 C1C    0.000 C1P    0.000 C2C    0.000 C2P    0.000        GLONASS COD/PHS/BIS 
                                                            END OF HEADER       
> 2021 06 10 03 35 55.0050000  0 25                     
G01  22597502.249 2 118750665.71615     -3128.631          33.000    22597501.639 2  92532990.27915     -2437.159          33.000                                                  
G07  23622945.738 1 124139413.68813     -3546.278          35.000    23622946.490 4                     -2763.320          29.000                                                  
G28  24260891.822 4                      1958.235          28.000                                                                                                                  
G21  25329421.894 2                     -3718.970          26.000                                                                                                                  
G14  22831345.537 9                      1580.743          26.000    22831349.945 8                      1230.780          26.000                                                  
C13  38486307.389 9                       229.527          21.000    38486302.686 8                       173.849          24.000  
C34  25592495.839 1 133266830.20715     -2328.920          34.000                                                                  
C11  24323509.493 8                     -1836.822          27.000    24323500.571 1  97940641.09913     -1420.576          34.000  
R09  21878098.409 4                     -3437.569          30.000    21878098.452 2  90866076.19414     -2673.241          34.000  
G30  22924994.644 9                     -1711.465          22.000    22924988.259 9                     -1332.615          20.000                                                  
G03  23759897.238 9                       921.821          20.000    23759889.609 9                       716.002          22.000                                                  
S28  38898213.944 9                      -561.133          28.000  
C07  37618127.619 8                       -39.888          25.000    37618111.066 1 151472535.04014       -29.899          33.000  
E26  25636450.752 9                       577.049          23.000    25636458.707 4                       443.337          25.000  
S37  38085540.214 9                      -546.582          28.000  
E21  25554995.366 8                       822.276          27.000    25554995.114 4                       630.303          28.000  
E27  25625514.380 2                     -1709.745          29.000    25625517.826 1 103183337.23713     -1309.784          35.000  
E15  28514987.487 9                     -3061.617          20.000    28514974.795 4                     -2345.963          24.000  
E14  20469749.435 1 107569250.10413     -1504.841          35.000    20469749.694 1  82423191.82712     -1153.236          39.000  
J07  38085527.787 9                      -552.071          24.000    38085526.828 2 155953865.78114      -429.128          34.000  
J03  41284469.928 4                      -846.320          27.000    41284480.641 4                      -659.075          29.000  
J02  38126363.480 9                       284.778          26.000    38126368.201 2                       221.589          30.000  
E13  25211032.433 9                     -1832.506          21.000    25211034.885 8                     -1408.956          25.000  
C08                                                                  38026598.500 9                       -99.014          23.000  
R20                                                                  22409834.786 9                     -2265.249          26.000  
> 2021 06 10 03 35 56.0050000  0 26                     
G01  22598097.526 2 118753794.705 5     -3129.659          33.000    22598097.139 2  92535428.505 5     -2438.816          33.000                                                  
G07  23623620.564 1 124142960.218 3     -3546.205          35.000    23623621.187 4                     -2763.832          28.000                                                  
G28  24260519.404 4                      1958.518          28.000                                                                                                                  
G22  24282953.276 9                     -1058.102          14.000                                                                                                                  
G21  25330129.476 2                     -3718.726          27.000                                                                                                                  
G14  22831043.863 9                      1580.123          24.000    22831048.603 8                      1230.361          26.000                                                  
C13  38486264.200 9                       223.787          20.000    38486258.733 8                       171.926          24.000  
C34  25592943.073 1 133269159.301 4     -2328.864          35.000                                                                  
C11  24323863.570 8                     -1836.974          26.000    24323853.385 1  97942061.425 3     -1420.475          35.000  
R09  21878742.074 4                     -3438.263          31.000    21878742.345 2  90868749.910 4     -2674.305          34.000  
G30  22925319.871 9                     -1713.507          22.000    22925313.076 9                     -1332.376          21.000                                                  
G03  23759722.073 9                       921.242          20.000    23759714.984 9                       715.300          23.000                                                  
S28  38898318.499 9                      -549.463          28.000  
C07  37618134.585 8                       -38.229          26.000    37618118.518 2 151472565.016 5       -29.998          33.000  
E26  25636340.334 9                       573.245          24.000    25636349.205 4                       443.083          25.000  
S37  38085644.040 9                      -556.592          27.000  
E21  25554838.455 8                       822.213          27.000    25554837.634 4                       630.381          27.000  
E27  25625839.659 2                     -1708.968          29.000    25625843.152 1 103184646.916 3     -1309.893          35.000  
E15  28515571.487 9                     -3065.660          20.000    28515557.513 8                     -2345.113          23.000  
E14  20470035.776 1 107570755.003 3     -1504.964          35.000    20470035.946 1  82424344.955 2     -1153.438          37.000  
J07  38085632.168 9                      -553.432          23.000    38085631.614 2 155954295.154 4      -429.179          34.000  
J03  41284631.533 4                      -846.488          28.000    41284640.852 8                      -659.611          29.000  
J02  38126310.512 8                       285.342          27.000    38126314.035 2 156120896.12215       221.204          31.000  
E13  25211380.946 9                     -1837.949          20.000    25211382.979 9                     -1405.919          23.000  
C08                                                                  38026622.200 9                       -95.672          23.000  
R20                                                                  22410380.884 8                     -2264.411          26.000  
> 2021 06 10 03 35 57.0050000  0 25                     
G01  22598692.855 2 118756923.974 5     -3129.767          33.000    22598692.562 2  92537866.831 5     -2438.156          33.000                                                  
G07  23624295.457 1 124146506.868 3     -3546.786          35.000    23624296.043 2                     -2763.740          29.000                                                  
G28  24260146.203 4                      1958.547          28.000                                                                                                                  
G21  25330836.969 2                     -3718.268          27.000                                                                                                                  
G14  22830744.489 9                      1579.232          24.000    22830748.214 8                      1229.484          25.000                                                  
C13  38486221.491 9                       237.498          20.000    38486216.642 8                       174.987          25.000  
C34  25593390.367 1 133271488.155 4     -2328.597          35.000                                                                  
C11  24324216.203 4                     -1836.904          27.000    24324206.084 1  97943481.604 3     -1419.880          36.000  
R09  21879385.848 4                     -3437.646          31.000    21879386.118 2  90871424.010 3     -2674.187          35.000  
G30  22925645.581 9                     -1727.698          21.000    22925639.064 9                     -1336.031          20.000                                                  
G03  23759548.414 9                       919.600          19.000    23759538.365 9                       709.948          22.000                                                  
S28  38898422.971 9                      -551.904          28.000  
C07  37618142.254 8                       -38.281          25.000    37618125.848 1 151472594.926 4       -30.052          34.000  
E26  25636232.449 9                       578.619          24.000    25636238.704 8                       443.256          26.000  
S37  38085747.832 9                      -524.414          27.000  
E21  25554682.771 8                       822.181          27.000    25554679.585 4                       629.758          26.000  
E27  25626165.659 2                     -1709.471          30.000    25626168.454 1 103185956.731 3     -1309.687          36.000  
E15  28516154.083 9                     -3059.866          20.000    28516139.544 9                     -2344.976          22.000  
E14  20470322.324 1 107572260.793 3     -1506.221          35.000    20470322.543 1  82425498.711 2     -1153.944          38.000  
J07  38085738.033 9                      -560.053          23.000    38085736.423 2 155954724.370 4      -429.285          34.000  
J03  41284793.492 4                      -846.172          28.000    41284801.327 8                      -659.160          29.000  
J02  38126256.554 8                       285.097          27.000    38126259.970 2                       222.853          32.000  
E13  25211731.011 9                     -1832.082          22.000    25211733.649 8                     -1404.847          26.000  
C08                                                                  38026646.355 8                       -93.770          25.000  
R11                                                                  24263217.411 9                      2638.825          24.000  
> 2021 06 10 03 35 58.0050000  0 26                     
G01  22599288.629 2 118760053.718 4     -3130.550          33.000    22599288.231 2                     -2438.031          33.000                                                  
G07  23624970.437 1 124150053.633 3     -3546.145          36.000    23624970.937 2                     -2763.088          29.000                                                  
G28  24259772.751 4 127485948.71115      1957.792          29.000                                                                                                                  
G21  25331544.596 2                     -3719.641          28.000                                                                                                                  
G14  22830445.086 9                      1579.590          25.000    22830447.813 9                      1232.036          24.000                                                  
C13  38486177.529 9                       235.624          21.000    38486174.034 8                       175.099          26.000  
C34  25593837.737 1 133273817.132 4     -2329.015          35.000                                                                  
C11  24324567.636 4                     -1837.229          26.000    24324558.850 1  97944901.992 3     -1420.771          36.000  
R21  22612137.962 9                       132.235          25.000                                                                  
R09  21880029.803 4                     -3438.535          30.000    21880029.926 2  90874098.471 3     -2674.233          36.000  
G30  22925972.429 9                     -1711.737          20.000    22925964.424 9                     -1338.857          20.000                                                  
G03  23759374.005 9                       920.424          18.000    23759363.280 9                       693.348          20.000                                                  
S28  38898526.948 9                      -544.824          27.000  
C07  37618149.978 8                       -38.517          24.000    37618133.270 2 151472624.903 5       -30.810          32.000  
E26  25636124.359 9                       573.879          25.000    25636129.086 4                       443.106          27.000  
S37  38085853.123 8                      -549.742          29.000  
E21  25554527.640 8                       821.241          27.000    25554523.407 4                       629.302          27.000  
E27  25626491.193 2                     -1709.247          30.000    25626493.749 1 103187266.817 3     -1309.681          35.000  
E15  28516737.331 9                     -3060.125          20.000    28516724.130 9                     -2349.584          23.000  
E14  20470608.893 1 107573767.731 3     -1508.097          35.000    20470609.633 1  82426653.363 2     -1155.122          39.000  
J07  38085841.717 9                      -550.003          25.000    38085841.172 2 155955153.561 4      -428.905          34.000  
J03  41284954.919 4                      -846.247          28.000    41284961.085 8                      -659.521          30.000  
J02  38126203.998 8                       284.742          28.000    38126205.784 2                       222.777          31.000  
E13  25212079.306 9                     -1834.109          25.000    25212082.603 8                     -1405.680          26.000  
C08                                                                  38026670.526 8                       -93.190          24.000  
R20                                                                  22411468.877 8                     -2265.283          30.000  
> 2021 06 10 03 35 59.0050000  0 25                     
G01  22599884.437 2 118763184.260 5     -3131.229          35.000    22599884.006 2  92542745.043 4     -2439.666          32.000                                                  
G07  23625645.216 1 124153599.718 3     -3545.838          36.000    23625645.778 4                     -2765.225          30.000                                                  
G28  24259396.875 8                      1957.646          29.000                                                                                                                  
G21  25332252.192 2                     -3718.787          28.000                                                                                                                  
G14  22830145.024 9                      1582.160          24.000    22830147.389 8                      1229.906          24.000                                                  
C13  38486132.607 9                       231.309          22.000    38486130.172 4                       175.331          24.000  
C34  25594285.036 1 133276146.648 4     -2329.922          34.000                                                                  
C11  24324919.514 4                     -1837.601          27.000    24324911.803 1  97946322.811 4     -1421.708          33.000  
R09  21880673.568 4                     -3438.700          29.000    21880673.822 2  90876772.796 3     -2674.511          38.000  
G30  22926298.774 9                     -1714.752          20.000    22926290.010 9                     -1334.087          20.000                                                  
G03  23759198.585 9                       927.492          21.000    23759187.763 9                       721.595          20.000                                                  
S28  38898631.420 9                      -563.184          26.000  
C07  37618156.221 9                       -43.478          22.000    37618140.855 2                       -29.591          31.000  
E26  25636014.851 9                       565.290          25.000    25636022.421 4                       442.919          26.000  
S37  38085957.779 9                      -535.986          27.000  
E21  25554371.020 8                       820.947          28.000    25554368.296 4                       628.267          29.000  
E27  25626816.298 2                     -1709.651          28.000    25626819.042 1 103188576.742 3     -1309.161          36.000  
E15  28517318.473 9                     -3055.325          18.000    28517306.070 9                     -2334.530          22.000  
E14  20470896.061 1 107575276.040 4     -1508.893          35.000    20470896.571 1  82427809.079 2     -1156.453          39.000  
J07  38085946.093 9                      -554.448          24.000    38085945.867 2 155955582.309 4      -428.386          34.000  
J03  41285117.923 4                      -845.199          27.000    41285121.542 8                      -660.008          30.000  
J02  38126148.371 4                       285.541          28.000    38126151.479 2                       222.548          30.000  
E13  25212427.539 9                     -1827.691          24.000    25212432.190 9                     -1404.010          22.000  
J01  39096968.483 9                      -441.203          13.000                                                                  
C08                                                                  38026694.432 8                       -94.018          26.000  
> 2021 06 10 03 36 00.0050000  0 27                     
G01  22600480.168 2 118766315.313 5     -3130.626          32.000    22600479.795 2  92545184.935 5     -2439.786          32.000                                                  
G07  23626319.826 1 124157145.309 4     -3546.175          32.000    23626320.458 2                     -2762.199          32.000                                                  
G28  24259023.312 9                      1950.506          21.000                                                                                                                  
G22  24283750.255 9                     -1059.179          16.000                                                                                                                  
G21  25332960.096 2                     -3720.435          28.000                                                                                                                  
G14  22829843.409 9                      1580.539          21.000    22829846.999 9                      1230.514          25.000                                                  
C13  38486090.157 9                       226.394          23.000    38486087.166 9                       170.362          21.000  
C34  25594732.335 1 133278476.372 4     -2330.167          33.000                                                                  
C11  24325272.465 4                     -1838.132          26.000    24325264.772 1  97947744.072 4     -1420.740          33.000  
R09  21881317.480 4                     -3439.301          29.000    21881317.612 2  90879447.019 3     -2674.427          38.000  
G30  22926625.662 9                     -1721.114          23.000    22926616.429 9                     -1334.390          21.000                                                  
G03  23759022.874 9                       912.210          22.000    23759013.752 8                       718.186          25.000                                                  
S28  38898735.963 8                      -546.950          31.000  
C07  37618162.820 9                       -41.449          23.000    37618148.485 2                       -30.283          30.000  
E26  25635906.773 9                       564.401          22.000    25635910.187 4                       442.278          26.000  
E21  25554215.913 9                       821.888          25.000    25554212.190 9                       628.047          19.000  
E27  25627141.547 2                     -1709.737          30.000    25627144.784 1 103189886.504 2     -1309.742          40.000  
E15  28517902.279 9                     -3047.476          17.000    28517890.066 9                     -2355.410          22.000  
E14  20471182.927 1 107576785.552 4     -1510.232          35.000    20471183.677 1  82428965.728 2     -1157.272          40.000  
J07  38086051.972 9                      -544.339          21.000    38086050.374 2 155956010.488 5      -428.712          32.000  
G06  25564413.955 9                      2608.111          24.000                                                                                                                  
J03  41285280.049 8                      -846.791          27.000    41285282.017 8                      -660.011          28.000  
J02  38126093.848 8                       286.112          27.000    38126097.269 2 156120007.353 5       222.756          33.000  
E13  25212776.609 9                     -1835.816          23.000    25212778.303 8                     -1407.608          26.000  
J01  39097049.603 9                      -441.203          11.000                                                                  
C08                                                                  38026716.989 4                       -93.473          27.000  
R20                                                                  22412555.800 9                     -2265.458          29.000  
> 2021 06 10 03 36 01.0050000  0 25                     
G01  22601076.077 2                     -3130.771          32.000    22601075.718 2                     -2438.844          31.000                                                  
G07  23626994.689 2 124160690.784 4     -3545.457          36.000    23626995.074 2  96748589.61414     -2762.621          35.000                                                  
G28  24258651.472 9                      1950.528          20.000                                                                                                                  
G22  24283953.007 9                     -1060.802          18.000                                                                                                                  
G21  25333668.072 2                     -3719.873          27.000                                                                                                                  
G14  22829543.101 9                      1585.339          20.000    22829547.245 9                      1230.096          24.000                                                  
C13  38486045.852 9                       223.483          23.000    38486044.557 9                       174.680          21.000  
C34  25595179.710 1 133280806.086 5     -2328.451          33.000                                                                  
C11  24325625.322 4                     -1837.635          32.000    24325617.843 1  97949165.543 4     -1421.457          33.000  
R09  21881961.508 4                     -3438.149          28.000    21881961.653 2  90882121.474 3     -2674.188          41.000  
G30  22926952.020 9                     -1714.293          28.000    22926945.479 9                     -1335.091          23.000                                                  
G03  23758845.952 9                       916.951          21.000    23758839.149 9                       715.453          25.000                                                  
S28  38898840.382 8                      -545.092          34.000  
C07  37618170.458 9                       -44.848          22.000    37618156.048 2                       -29.353          25.000  
E26  25635798.925 9                       576.718          21.000    25635799.017 4                       441.181          25.000  
E21  25554060.161 9                       819.427          23.000    25554057.556 9                       629.231          22.000  
E27  25627466.728 2 134673266.86215     -1709.225          33.000    25627470.040 1 103191196.237 2     -1309.472          40.000  
E15  28518483.845 9                     -3054.277          17.000    28518469.750 9                     -2344.677          29.000  
E14  20471470.269 1 107578296.211 4     -1510.265          35.000    20471471.005 1  82430123.265 2     -1157.646          39.000  
J07  38086156.329 9                      -559.007          19.000    38086154.931 2                      -428.485          31.000  
J03  41285441.612 8                      -846.119          32.000    41285441.814 8                      -659.210          29.000  
J02  38126040.735 8                       286.675          28.000    38126042.888 2 156119784.496 5       222.865          34.000  
E13  25213124.074 9                     -1834.609          21.000    25213126.621 8                     -1407.783          26.000  
C08                                                                  38026740.593 4                       -93.484          27.000  
R20                                                                  22413098.375 9                     -2268.256          33.000  
> 2021 06 10 03 36 02.0050000  0 26                     
G01  22601672.138 4                     -3130.836          31.000    22601671.662 2                     -2440.446          34.000                                                  
G07  23627669.367 1 124164236.562 3     -3545.960          38.000    23627669.655 2  96751352.526 4     -2763.362          33.000                                                  
G28  24258275.973 9                      1966.815          22.000                                                                                                                  
G22  24284155.413 9                     -1057.058          18.000                                                                                                                  
G21  25334375.828 2                     -3719.488          28.000                                                                                                                  
G14  22829243.928 9                      1576.040          21.000    22829247.953 9                      1230.945          25.000                                                  
C13  38486001.847 9                       230.345          21.000    38486000.465 9                       172.244          20.000  
C34  25595626.837 1 133283135.623 4     -2330.183          32.000                                                                  
C11  24325978.978 4                     -1838.662          28.000    24325970.882 1  97950586.849 4     -1420.921          37.000  
R09  21882605.712 4                     -3439.193          29.000    21882605.697 1  90884796.142 2     -2675.229          42.000  
G30  22927277.763 8                     -1712.678          28.000    22927273.257 8                     -1342.346          26.000                                                  
G03  23758670.936 9                       932.990          20.000    23758664.905 9                       719.902          23.000                                                  
S28  38898944.872 4                      -544.993          30.000  
C07  37618178.172 9                       -39.433          22.000    37618163.528 2                       -30.984          27.000  
E26  25635689.296 9                       577.119          29.000    25635687.647 4                       441.088          31.000  
E21  25553902.707 9                       826.554          21.000    25553898.695 8                       625.355          25.000  
E27  25627792.348 2 134674976.147 4     -1709.015          33.000    25627795.554 1 103192506.053 2     -1310.062          41.000  
E15  28519064.687 9                     -3056.407          18.000    28519053.238 8                     -2347.197          24.000  
E14  20471757.542 2 107579807.651 5     -1512.404          31.000    20471758.615 1  82431281.324 2     -1158.365          42.000  
J03  41285606.784 8                      -846.571          30.000    41285604.823 4                      -659.489          32.000  
J02  38125988.419 8                       286.356          35.000    38125988.576 2 156119561.521 4       222.975          35.000  
E13  25213473.428 9                     -1837.302          19.000    25213474.870 4                     -1406.772          28.000  
J01  39097215.530 9                      -441.203          10.000                                                                  
C08                                                                  38026764.003 4                       -94.033          28.000  
R20                                                                  22413640.534 9                     -2265.521          32.000  
J07                                                                  38086259.580 2 155956866.113 5      -427.612          35.000  
> 2021 06 10 03 36 03.0050000  0 26                     
G01  22602268.072 2 118775710.936 5     -3132.048          33.000    22602267.571 2                     -2440.869          32.000                                                  
G07  23628344.175 1 124167782.548 3     -3545.999          39.000    23628344.344 2  96754115.738 5     -2763.915          32.000                                                  
G28  24257902.356 9                      1961.144          20.000                                                                                                                  
G22  24284358.097 9                     -1064.095          18.000                                                                                                                  
G21  25335083.582 2                     -3720.178          32.000                                                                                                                  
G14  22828944.101 9                      1578.849          22.000    22828948.063 8                      1228.764          25.000                                                  
C13  38485957.574 9                       228.166          21.000    38485956.015 9                       175.043          29.000  
C34  25596074.085 2                     -2330.028          29.000                                                                  
C11  24326333.829 4                     -1838.295          28.000    24326323.978 1  97952008.278 5     -1422.023          33.000  
R09  21883250.170 8                     -3440.546          28.000    21883249.863 1  90887471.391 2     -2674.753          40.000  
G30  22927603.766 8                     -1714.800          28.000    22927602.279 9                     -1335.208          26.000                                                  
G03  23758494.794 9                       927.184          20.000    23758490.952 9                       725.166          21.000                                                  
S28  38899049.273 4                      -545.381          30.000  
C07  37618186.204 9                       -34.844          23.000    37618170.959 2                       -31.089          31.000  
E26  25635573.425 8                       575.343          31.000    25635578.704 2 103223856.96015       441.823          35.000  
E21  25553745.188 9                       820.116          22.000    25553744.790 9                       627.284          26.000  
E27  25628117.530 2 134676685.855 4     -1710.683          34.000    25628120.898 1 103193816.053 2     -1310.082          40.000  
E15  28519647.477 9                     -3066.034          19.000    28519637.372 9                     -2347.078          24.000  
E14  20472045.270 2 107581319.913 5     -1513.150          34.000    20472046.835 1  82432440.057 2     -1159.492          41.000  
J07  38086366.240 9                      -555.272          22.000    38086364.123 2 155957293.826 5      -428.055          34.000  
J03  41285767.340 8                      -846.877          29.000    41285766.785 4                      -659.322          31.000  
J02  38125932.722 4 200353108.50115       285.835          35.000    38125934.092 1 156119338.605 3       223.028          38.000  
E13  25213823.774 9                     -1839.519          19.000    25213824.030 4                     -1407.103          28.000  
J01  39097294.455 9                      -441.203          15.000                                                                  
C08                                                                  38026787.383 4                       -93.716          26.000  
R20                                                                  22414186.572 8                     -2266.736          35.000  
> 2021 06 10 03 36 04.0050000  0 26                     
G01  22602864.192 2 118778843.866 4     -3132.848          34.000    22602863.659 2                     -2441.136          31.000                                                  
G07  23629018.919 1 124171328.275 3     -3544.770          35.000    23629019.066 2  96756878.664 5     -2763.428          32.000                                                  
G28  24257530.239 9                      1959.120          21.000                                                                                                                  
G22  24284561.095 9                     -1066.554          19.000                                                                                                                  
G21  25335791.518 4                     -3720.377          31.000                                                                                                                  
G14  22828644.261 9                      1573.572          22.000    22828648.117 8                      1227.152          25.000                                                  
C13  38485913.840 9                       227.964          25.000    38485911.287 8                       175.529          30.000  
C34  25596521.358 2                     -2331.164          30.000                                                                  
C11  24326687.373 4                     -1838.678          29.000    24326677.142 1  97953430.219 5     -1423.090          33.000  
R09  21883894.943 8                     -3439.038          28.000    21883893.966 1  90890146.811 2     -2674.964          42.000  
G30  22927932.084 8                     -1714.570          27.000    22927930.107 9                     -1328.021          23.000                                                  
G03  23758320.316 9                       923.069          19.000    23758315.148 9                       707.187          19.000                                                  
S28  38899153.951 2                      -546.375          33.000  
C07  37618191.792 9                       -41.903          24.000    37618178.334 2                       -29.458          31.000  
E26  25635468.210 8                       575.451          30.000    25635469.102 4                       439.896          30.000  
E21  25553588.913 8                       819.682          24.000    25553588.911 8                       624.664          30.000  
E27  25628443.004 2 134678395.710 5     -1709.980          32.000    25628446.164 1 103195126.168 2     -1309.763          40.000  
E15  28520231.183 9                     -3061.059          18.000    28520220.689 9                     -2346.602          25.000  
E14  20472333.517 2 107582833.534 4     -1514.709          34.000    20472334.612 1  82433599.907 2     -1160.459          39.000  
J07  38086471.345 9                      -549.450          24.000    38086468.435 1 155957721.328 3      -427.096          37.000  
J03  41285927.457 8                      -846.501          30.000    41285927.349 4 169058978.17515      -659.567          35.000  
J02  38125876.949 4 200352822.363 4       286.230          34.000    38125879.596 1 156119115.649 2       222.899          38.000  
E13  25214173.422 9                     -1841.967          21.000    25214175.155 4                     -1409.023          28.000  
J01  39097375.457 9                      -441.203          17.000                                                                  
C08                                                                  38026810.660 9                       -91.831          26.000  
R20                                                                  22414731.899 8                     -2269.356          32.000  
> 2021 06 10 03 36 05.0050000  0 26                     
G01  22603460.561 2 118781978.130 5     -3134.729          34.000    22603460.180 2                     -2442.868          31.000                                                  
G07  23629693.427 1 124174872.856 3     -3544.003          37.000    23629693.424 2                     -2760.783          31.000                                                  
G28  24257157.346 9                      1958.378          22.000                                                                                                                  
G22  24284762.608 9                     -1064.219          18.000                                                                                                                  
G21  25336498.592 8                     -3721.063          31.000                                                                                                                  
G14  22828344.982 9                      1568.720          22.000    22828348.692 9                      1223.460          24.000                                                  
C13  38485870.046 8                       226.971          31.000    38485867.101 4                       176.522          32.000  
C34  25596968.837 2                     -2331.317          25.000                                                                  
C11  24327039.321 8                     -1840.916          29.000    24327030.432 2  97954853.008 5     -1422.303          38.000  
R09  21884538.058 8                     -3439.091          28.000    21884537.949 2  90892821.740 2     -2674.841          42.000  
G30  22928259.226 9                     -1716.019          28.000    22928259.725 9                     -1331.403          24.000                                                  
G03  23758146.903 9                       919.903          18.000    23758142.766 9                       718.921          20.000                                                  
S28  38899258.332 2 204416970.51434      -545.619          36.000  
C07  37618198.540 9                       -38.637          25.000    37618185.742 2                       -30.506          34.000  
E26  25635358.291 8                       577.075          31.000    25635357.846 4                       440.852          31.000  
E21  25553431.468 9                       827.816          21.000    25553432.268 8                       625.843          26.000  
E27  25628768.251 2 134680105.121 5     -1709.298          33.000    25628771.327 1 103196436.042 2     -1309.640          39.000  
E15  28520811.843 9                     -3057.124          18.000    28520804.009 8                     -2346.864          24.000  
E14  20472621.920 2 107584349.228 5     -1516.455          34.000    20472622.857 1  82434761.309 3     -1162.036          38.000  
J07  38086574.980 9                      -547.788          26.000    38086572.696 1 155958148.189 3      -426.581          38.000  
J03  41286090.895 8                      -846.145          30.000    41286088.666 2 169059637.801 5      -660.469          34.000  
J02  38125822.589 4 200352535.425 4       287.944          34.000    38125824.916 1 156118892.136 4       222.925          39.000  
E13  25214523.862 9                     -1844.715          20.000    25214525.443 9                     -1398.085          24.000  
J01  39097457.543 9                      -441.203          17.000                                                                  
C08                                                                  38026834.838 9                       -86.735          23.000  
R20                                                                  22415276.407 8                     -2266.760          33.000  
> 2021 06 10 03 36 06.0050000  0 25                     
G01  22604057.240 2                     -3136.948          32.000    22604056.970 2  92559833.292 5     -2445.676          32.000                                                  
G07  23630367.682 1 124178415.916 3     -3542.174          37.000    23630367.520 4                     -2759.489          30.000                                                  
G28  24256787.578 9                      1948.335          22.000                                                                                                                  
G22  24284964.231 9                     -1064.992          17.000                                                                                                                  
G21  25337209.277 8                     -3724.396          32.000                                                                                                                  
G14  22828046.978 9                      1574.596          22.000    22828049.601 9                      1226.050          25.000                                                  
C13  38485826.167 4 200405796.59635       227.996          33.000    38485821.706 4 154966468.65135       177.080          35.000  
C34  25597416.522 2                     -2334.279          32.000                                                                  
C25  23847479.869 8                     -1963.694          36.000                                                                  
C11  24327394.010 8                     -1842.553          28.000    24327384.233 4                     -1425.070          29.000  
R09  21885181.701 8                     -3436.855          28.000    21885181.927 1  90895496.190 2     -2674.245          42.000  
G30  22928582.636 8                     -1711.208          29.000    22928583.933 9                     -1334.873          26.000                                                  
G03  23757972.990 9                       914.316          19.000    23757968.813 9                       712.223          19.000                                                  
S28  38899362.563 8                      -544.857          37.000  
C07  37618205.443 8                       -39.304          27.000    37618193.443 1 151472866.052 4       -30.805          35.000  
E26  25635246.027 8                       577.129          32.000    25635247.960 2 103222532.860 5       441.029          35.000  
E21  25553275.816 9                       810.355          23.000    25553277.423 8                       625.451          26.000  
E27  25629093.134 2 134681814.470 5     -1709.672          33.000    25629096.801 1 103197745.772 2     -1309.891          39.000  
E15  28521394.250 9                     -3064.584          19.000    28521387.191 8                     -2349.351          25.000  
E14  20472910.971 2 107585867.231 5     -1519.007          33.000    20472911.849 1  82435924.452 3     -1164.520          40.000  
J07  38086679.504 8                      -545.674          27.000    38086676.782 1 155958574.379 3      -425.610          36.000  
J03  41286249.552 4                      -848.080          30.000    41286249.792 2 169060298.100 4      -660.640          34.000  
J02  38125768.673 4 200352248.078 5       287.727          33.000    38125770.192 1 156118668.191 3       223.795          37.000  
E13  25214874.482 9                     -1845.450          21.000    25214873.885 9                     -1409.542          30.000  
C08                                                                  38026857.805 8                       -91.594          31.000  
> 2021 06 10 03 36 07.0050000  0 28                     
G01  22604654.309 2                     -3138.198          31.000    22604654.029 2  92562278.385 5     -2445.333          33.000                                                  
G07  23631041.619 1 124181957.271 5     -3539.390          34.000    23631041.391 4                     -2758.379          34.000                                                  
G28  24256415.951 9                      1951.972          22.000                                                                                                                  
G22  24285167.064 9                     -1068.453          17.000                                                                                                                  
G21  25337918.001 8                     -3724.750          32.000                                                                                                                  
G14  22827748.033 9                      1584.677          21.000    22827749.723 9                      1225.821          24.000                                                  
C13  38485782.288 4 200405567.23825       228.719          33.000    38485776.712 4 154966291.37523       177.003          36.000  
C34  25597864.740 2                     -2332.915          31.000                                                                  
C25  23847856.170 4 124182049.69834     -1964.616          38.000                                                                  
C11  24327748.353 8                     -1842.600          27.000    24327737.683 4                     -1424.551          33.000  
R09  21885825.001 8                     -3438.754          28.000    21885825.881 1  90898170.478 2     -2674.780          41.000  
G30  22928909.502 4 120492232.37735     -1715.049          38.000    22928909.414 8                     -1334.911          35.000                                                  
G03  23757798.463 9                       906.752          20.000    23757794.673 9                       721.518          19.000                                                  
G17  23915349.374 9                         7.153          23.000                                                                                                                  
S28  38899466.525 2 204418072.68535      -543.167          35.000  
C07  37618216.638 4                       -40.827          30.000    37618201.218 1 151472897.528 3       -31.242          38.000  
E26  25635132.807 8                       576.824          35.000    25635138.786 2 103222090.486 5       443.445          36.000  
S37  38086772.344 9                      -548.531          31.000  
E21  25553119.569 9                       818.441          20.000    25553122.657 9                       626.373          25.000  
E27  25629418.281 2 134683524.022 5     -1708.785          30.000    25629422.250 1 103199055.777 3     -1310.579          35.000  
E15  28521976.899 9                     -3065.474          19.000    28521969.819 8                     -2347.052          25.000  
E14  20473200.503 2 107587387.911 5     -1521.977          34.000    20473201.134 1  82437089.613 3     -1165.635          38.000  
J07  38086782.940 8                      -546.207          27.000    38086780.734 1 155959000.161 3      -425.740          38.000  
J03  41286410.908 4 216961539.95215      -848.405          33.000    41286411.439 2 169060959.242 4      -660.425          34.000  
J02  38125714.387 4                       287.331          32.000    38125715.405 1 156118444.121 3       224.264          35.000  
E13  25215223.969 9                     -1833.225          20.000    25215223.661 8                     -1409.631          30.000  
C08                                                                  38026879.545 4                       -93.772          35.000  
R20                                                                  22416369.466 8                     -2274.374          26.000  
> 2021 06 10 03 36 08.0050000  0 28                     
G01  22605251.668 2                     -3139.485          33.000    22605251.392 2  92564724.163 5     -2445.884          33.000                                                  
G07  23631715.420 2                     -3541.277          32.000    23631715.120 4  96767920.503 5     -2759.851          34.000                                                  
G28  24256044.233 9                      1965.140          21.000                                                                                                                  
G22  24285370.440 9                     -1068.564          16.000                                                                                                                  
G21  25338627.239 8                     -3722.079          22.000                                                                                                                  
G14  22827448.484 9                      1578.311          21.000    22827450.956 9                      1225.458          24.000                                                  
C13  38485738.033 4 200405337.88825       228.420          33.000    38485731.351 2 154966114.03423       176.974          35.000  
C34  25598313.009 2                     -2334.608          32.000                                                                  
C25  23848235.438 4 124184014.13423     -1964.633          38.000                                                                  
C11  24328100.509 8                     -1843.764          27.000    24328089.477 4                     -1425.028          32.000  
C08  38026916.289 8                      -122.125          31.000    38026901.587 4 153118585.89433       -94.679          38.000  
R09  21886470.334 8                     -3439.601          29.000    21886469.825 2  90900845.208 3     -2674.538          39.000  
G30  22929234.654 4 120493947.43924     -1715.704          36.000    22929234.809 8                     -1335.692          33.000                                                  
G03  23757624.520 9                       913.697          19.000    23757620.424 9                       715.232          17.000                                                  
S28  38899570.477 2 204418616.19124      -544.762          35.000  
C07  37618222.684 4 195887949.25635       -41.255          32.000    37618209.150 1 151472929.343 4       -31.643          36.000  
E26  25635023.382 4 134712954.09814       576.946          35.000    25635029.106 2 103221648.187 4       442.135          36.000  
S37  38086879.757 9                      -559.082          31.000  
E21  25552964.940 9                       812.297          21.000    25552968.591 8                       623.381          26.000  
E27  25629744.358 2                     -1709.135          28.000    25629747.612 1 103200366.291 4     -1309.954          34.000  
E15  28522559.818 9                     -3069.428          18.000    28522555.138 9                     -2358.923          22.000  
E14  20473490.072 2 107588909.985 5     -1522.470          34.000    20473490.710 1  82438255.861 3     -1166.724          38.000  
J07  38086887.146 8                      -545.773          27.000    38086884.708 1 155959426.029 3      -425.807          38.000  
G06  25560444.532 9                      2611.237          23.000                                                                                                                  
J03  41286572.258 4 216962388.753 5      -848.715          33.000    41286573.037 2 169061620.608 5      -661.673          31.000  
J02  38125659.725 4                       287.518          26.000    38125660.852 2                       222.997          31.000  
E13  25215572.319 9                     -1835.397          21.000    25215574.701 4                     -1410.284          26.000  
R20                                                                  22416914.980 9                     -2263.340          26.000  
> 2021 06 10 03 36 09.0050000  0 28                     
G01  22605849.038 2 118794529.54725     -3139.287          33.000    22605848.689 2  92567169.976 5     -2446.217          32.000                                                  
G07  23632389.454 2                     -3543.273          32.000    23632389.089 2  96770680.553 5     -2760.327          34.000                                                  
G28  24255671.356 9                      1957.765          23.000                                                                                                                  
G22  24285574.459 9                     -1077.306          17.000                                                                                                                  
G21  25339339.898 9                     -3713.692          21.000                                                                                                                  
G14  22827148.338 9                      1568.238          22.000    22827152.547 9                      1215.011          24.000                                                  
C13  38485693.250 4 200405108.61815       228.149          32.000    38485687.907 2 154965937.109 4       177.401          36.000  
C34  25598761.357 2                     -2334.583          31.000                                                                  
C25  23848612.436 4 124185979.34123     -1965.682          38.000                                                                  
C11  24328453.873 9                     -1842.454          25.000    24328444.537 8                     -1424.963          31.000  
C08  38026940.194 4                      -121.794          31.000    38026925.456 4 153118679.33113       -93.940          38.000  
R09  21887114.574 8                     -3439.301          30.000    21887113.935 2  90903520.411 3     -2674.992          41.000  
G30  22929562.691 4 120495663.69424     -1715.922          37.000    22929559.830 8                     -1337.850          33.000                                                  
G03  23757449.731 9                       921.969          17.000    23757444.022 9                       717.179          17.000                                                  
S28  38899674.649 2 204419160.37525      -543.674          33.000  
C07  37618230.885 4                       -39.534          31.000    37618216.875 1 151472960.955 4       -33.059          35.000  
E26  25634916.787 4 134712377.922 4       575.581          37.000    25634918.822 2 103221206.640 4       441.389          36.000  
S37  38086983.452 9                      -549.365          30.000  
E21  25552811.928 9                       803.978          19.000    25552814.547 9                       624.770          25.000  
E27  25630071.834 9                     -1714.154          20.000    25630073.333 2                     -1310.476          31.000  
E15  28523143.310 9                     -3051.743          16.000    28523140.506 9                     -2341.041          21.000  
E14  20473779.504 2 107590432.625 5     -1523.525          34.000    20473780.357 1  82439422.618 3     -1167.082          39.000  
J07  38086991.816 8                      -546.036          26.000    38086988.710 1 155959851.830 3      -426.294          35.000  
G06  25559946.621 9                      2607.482          26.000                                                                                                                  
J03  41286733.737 2                      -848.283          32.000    41286734.687 2 169062281.728 5      -662.567          33.000  
J02  38125605.145 4                       287.987          26.000    38125606.260 2                       223.745          31.000  
